[
  {
      "id": 2215,
      "locationId": "dangjinsupercharger",
      "name": "Dangjin, South Korea",
      "status": "OPEN",
      "address": {
          "street": "충남 당진시 송악읍 송악로 63",
          "city": "당진",
          "state": "48",
          "zip": null,
          "countryId": 137,
          "country": "South Korea",
          "regionId": 102,
          "region": "Asia Pacific"
      },
      "gps": {
          "latitude": 36.909503,
          "longitude": 126.69407466
      },
      "dateOpened": "2019-12-20",
      "stallCount": 6,
      "counted": true,
      "elevationMeters": 42,
      "powerKilowatt": 120,
      "solarCanopy": false,
      "battery": false,
      "statusDays": 0,
      "urlDiscuss": false
  },
  {
      "id": 2216,
      "locationId": "seoulgangseosupercharger",
      "name": "Seoul - Gangseo, South Korea",
      "status": "OPEN",
      "address": {
          "street": "서울특별시 강서구 하늘길 38",
          "city": "서울",
          "state": null,
          "zip": null,
          "countryId": 137,
          "country": "South Korea",
          "regionId": 102,
          "region": "Asia Pacific"
      },
      "gps": {
          "latitude": 37.563265,
          "longitude": 126.803108
      },
      "dateOpened": "2019-12-20",
      "stallCount": 4,
      "counted": true,
      "elevationMeters": 13,
      "powerKilowatt": 120,
      "solarCanopy": false,
      "battery": false,
      "statusDays": 0,
      "urlDiscuss": false
  },
  {
      "id": 122,
      "locationId": "sanjuancapistranosupercharger",
      "name": "San Juan Capistrano, CA",
      "status": "OPEN",
      "address": {
          "street": "31971 Camino Capistrano",
          "city": "San Juan Capistrano",
          "state": "CA",
          "zip": "92675",
          "countryId": 100,
          "country": "USA",
          "regionId": 100,
          "region": "North America"
      },
      "gps": {
          "latitude": 33.498458,
          "longitude": -117.6632
      },
      "dateOpened": "2014-05-06",
      "stallCount": 7,
      "counted": true,
      "elevationMeters": 30,
      "powerKilowatt": 0,
      "solarCanopy": false,
      "battery": false,
      "statusDays": 0,
      "urlDiscuss": true
  },
  {
      "id": 125,
      "locationId": "glenwoodspringssupercharger",
      "name": "Glenwood Springs, CO",
      "status": "OPEN",
      "address": {
          "street": "125 Wulfsohn Rd",
          "city": "Glenwood Springs",
          "state": "CO",
          "zip": "81601",
          "countryId": 100,
          "country": "USA",
          "regionId": 100,
          "region": "North America"
      },
      "gps": {
          "latitude": 39.55268,
          "longitude": -107.340168
      },
      "dateOpened": "2013-09-17",
      "stallCount": 6,
      "counted": true,
      "elevationMeters": 1762,
      "powerKilowatt": 0,
      "solarCanopy": false,
      "battery": false,
      "statusDays": 0,
      "urlDiscuss": true
  },
  {
      "id": 126,
      "locationId": "grandjunctionsupercharger",
      "name": "Grand Junction, CO",
      "status": "OPEN",
      "address": {
          "street": "2420 U.S. 6",
          "city": "Grand Junction",
          "state": "CO",
          "zip": "81505",
          "countryId": 100,
          "country": "USA",
          "regionId": 100,
          "region": "North America"
      },
      "gps": {
          "latitude": 39.090758,
          "longitude": -108.604325
      },
      "dateOpened": "2014-01-10",
      "stallCount": 6,
      "counted": true,
      "elevationMeters": 1386,
      "powerKilowatt": 0,
      "solarCanopy": false,
      "battery": false,
      "statusDays": 0,
      "urlDiscuss": true
  },
  {
      "id": 117,
      "locationId": "hawthornerocketsupercharger",
      "name": "Hawthorne, CA",
      "status": "OPEN",
      "address": {
          "street": "1 Rocket Rd",
          "city": "Hawthorne",
          "state": "CA",
          "zip": "90250",
          "countryId": 100,
          "country": "USA",
          "regionId": 100,
          "region": "North America"
      },
      "gps": {
          "latitude": 33.921068,
          "longitude": -118.330054
      },
      "dateOpened": "2012-11-19",
      "stallCount": 12,
      "counted": true,
      "elevationMeters": 18,
      "powerKilowatt": 250,
      "solarCanopy": false,
      "battery": true,
      "statusDays": 0,
      "urlDiscuss": true
  },
  {
      "id": 100,
      "locationId": "buckeyesupercharger",
      "name": "Buckeye, AZ",
      "status": "OPEN",
      "address": {
          "street": "416 S Watson Rd",
          "city": "Buckeye",
          "state": "AZ",
          "zip": "85326",
          "countryId": 100,
          "country": "USA",
          "regionId": 100,
          "region": "North America"
      },
      "gps": {
          "latitude": 33.443011,
          "longitude": -112.556876
      },
      "dateOpened": "2014-03-20",
      "stallCount": 8,
      "counted": true,
      "elevationMeters": 338,
      "powerKilowatt": 0,
      "solarCanopy": false,
      "battery": false,
      "statusDays": 0,
      "urlDiscuss": true
  },
  {
      "id": 110,
      "locationId": "buelltonsupercharger",
      "name": "Buellton, CA",
      "status": "OPEN",
      "address": {
          "street": "555 McMurray Rd",
          "city": "Buellton",
          "state": "CA",
          "zip": "93427",
          "countryId": 100,
          "country": "USA",
          "regionId": 100,
          "region": "North America"
      },
      "gps": {
          "latitude": 34.61456,
          "longitude": -120.188387
      },
      "dateOpened": "2013-07-13",
      "stallCount": 10,
      "counted": true,
      "elevationMeters": 114,
      "powerKilowatt": 150,
      "solarCanopy": false,
      "battery": false,
      "statusDays": 0,
      "urlDiscuss": true
  },
  {
      "id": 111,
      "locationId": "corningsupercharger",
      "name": "Corning, CA",
      "status": "OPEN",
      "address": {
          "street": "950 Hwy 99",
          "city": "Corning",
          "state": "CA",
          "zip": "96021",
          "countryId": 100,
          "country": "USA",
          "regionId": 100,
          "region": "North America"
      },
      "gps": {
          "latitude": 39.926454,
          "longitude": -122.198393
      },
      "dateOpened": "2013-10-18",
      "stallCount": 6,
      "counted": true,
      "elevationMeters": 87,
      "powerKilowatt": 150,
      "solarCanopy": false,
      "battery": false,
      "statusDays": 0,
      "urlDiscuss": true
  },
  {
      "id": 139,
      "locationId": "staugustinesupercharger",
      "name": "St. Augustine, FL",
      "status": "OPEN",
      "address": {
          "street": "2700 State Road 16, Suite 200",
          "city": "St. Augustine",
          "state": "FL",
          "zip": "32092",
          "countryId": 100,
          "country": "USA",
          "regionId": 100,
          "region": "North America"
      },
      "gps": {
          "latitude": 29.924286,
          "longitude": -81.416018
      },
      "dateOpened": "2014-01-03",
      "stallCount": 6,
      "counted": true,
      "elevationMeters": 14,
      "powerKilowatt": 0,
      "solarCanopy": false,
      "battery": false,
      "statusDays": 0,
      "urlDiscuss": true
  }
]